City,Country,Latitude,Longitude,Temperature (F),Humidity (%),Cloudiness (%),Wind Speed (mph)
mount isa,AU,-20.73,139.5,91.39999999999992,16,30,4.1
dikson,RU,73.51,80.55,-1.0120000000000005,94,61,1.64
hithadhoo,MV,-0.6,73.08,84.344,69,47,3.06
paranaiba,BR,-19.68,-51.19,73.13000000000005,71,20,1.39
nome,US,64.5,-165.41,31.118000000000052,86,90,2.1
morondava,MG,-20.28,44.28,77.86399999999998,74,3,0.72
carballo,ES,43.21,-8.69,51.583999999999946,87,56,1.0
ondorhaan,ZA,-33.02,27.91,66.66800000000006,73,96,4.24
east london,RE,-21.36,55.77,66.86599999999993,78,8,3.1
saint-philippe,US,42.6,-73.97,54.08600000000007,59,75,9.8
albany,BR,-5.37,-49.12,80.59999999999997,100,20,1.16
maraba,MA,32.3,-9.24,61.160000000000025,80,15,4.87
asfi,AR,-38.0,-57.56,57.32600000000008,76,90,3.6
mar del plata,AU,-24.87,113.63,76.99999999999994,78,25,7.2
carnarvon,US,57.79,-152.41,40.99999999999994,86,90,4.1
kodiak,BR,-3.2,-59.81,76.118,88,75,2.6
careiro da varzea,US,22.08,-159.32,78.90799999999996,78,75,6.2
kapaa,RU,69.3,139.9,-1.461999999999989,83,100,2.97
deputatskiy,AR,-54.8,-68.3,46.39999999999998,70,75,3.1
ushuaia,ID,-3.37,135.48,84.14600000000002,69,93,0.53
nabire,ZA,-34.53,20.04,49.99999999999994,76,5,2.61
bredasdorp,SD,13.6,26.69,72.48200000000003,15,40,6.18
vaitupu,TO,-21.2,-175.2,82.39999999999992,69,75,3.6
umm kaddadah,PF,-9.8,-139.03,82.39999999999992,68,53,2.2
vaini,RU,53.13,35.4,48.36200000000002,72,91,6.29
atuona,RU,68.05,166.44,14.899999999999977,86,64,0.88
khotynets,AU,-33.65,115.33,62.99600000000004,84,80,1.34
bilibino,RU,71.69,128.87,-2.3079999999999927,88,0,2.16
busselton,PK,25.12,62.33,78.40400000000005,80,100,2.91
tiksi,PF,-23.12,-134.97,76.98200000000003,71,79,5.87
gwadar,NZ,-46.19,168.86,46.99400000000003,71,42,8.94
rikitea,NC,-22.67,167.48,75.23600000000005,82,99,7.34
mataura,ML,13.91,-4.55,91.76000000000005,24,36,3.02
vao,AR,-38.55,-58.74,54.787999999999954,62,100,2.24
djenne,AU,-37.83,140.77,64.39999999999992,48,75,4.6
necochea,RU,51.05,142.27,35.97800000000001,80,90,3.31
mount gambier,RU,58.01,114.28,35.599999999999966,69,38,0.86
mgachi,BR,-3.28,-39.27,79.19599999999997,84,100,2.57
barentsburg,SB,-8.1,156.84,84.88399999999996,73,99,1.9
balakhninskiy,NE,13.21,12.02,79.12399999999997,17,23,4.78
trairi,TH,13.45,101.18,83.06599999999997,78,40,4.6
gizo,GL,60.14,-45.24,31.964,95,98,2.95
maine-soroa,NZ,-46.28,169.85,48.00200000000001,65,74,1.79
phanat nikhom,AR,-43.3,-65.1,57.09199999999993,61,0,1.98
nanortalik,US,46.28,-96.08,23.43199999999996,62,1,3.1
kaitangata,CA,62.46,-114.35,26.29400000000004,38,20,5.1
rawson,ZA,-33.93,18.42,55.688000000000045,93,20,1.5
fergus falls,IR,28.75,54.54,53.329999999999984,54,14,0.27
yellowknife,CL,-53.15,-70.92,46.813999999999965,75,75,3.6
cape town,TM,42.06,59.38,37.363999999999976,69,7,2.1
darab,SV,13.28,-88.55,82.39999999999992,83,20,0.5
punta arenas,CA,47.67,-52.73,36.103999999999985,55,20,4.1
taolanaro,CO,11.54,-72.91,82.65199999999999,68,8,5.54
akdepe,ZA,-34.0,24.73,52.646000000000015,80,11,2.79
puerto el triunfo,IR,29.11,58.36,63.896000000000015,37,71,2.79
illoqqortoormiut,NE,13.98,10.27,75.90199999999999,16,0,3.08
torbay,US,71.29,-156.79,26.599999999999966,92,90,5.7
riohacha,US,31.46,-100.44,53.92399999999992,50,1,4.6
kruisfontein,CK,-21.21,-159.78,82.39999999999992,69,94,1.5
bam,SJ,78.22,15.64,15.799999999999955,61,75,7.7
rungata,US,41.37,-73.41,58.72999999999996,77,1,3.1
goure,UY,-33.7,-53.46,65.93,87,98,4.03
barrow,CI,8.37,-4.43,80.63600000000002,62,43,2.65
san angelo,EC,-0.74,-90.35,80.22200000000004,78,75,3.1
avarua,CA,50.03,-66.87,34.62800000000004,100,90,10.8
belushya guba,NG,9.18,7.18,84.00200000000001,30,60,0.74
sentyabrskiy,PT,38.52,-28.7,60.53000000000003,78,74,5.44
longyearbyen,MM,16.78,94.73,76.13600000000002,90,9,1.57
bethel,BR,-24.79,-50.01,60.079999999999984,59,63,2.26
chuy,PG,-2.02,147.27,82.14799999999997,78,100,2.04
toulepleu,AU,-42.88,147.33,60.99799999999999,55,20,7.2
dabakala,RU,64.54,40.54,37.39999999999998,74,40,6.0
puerto ayora,IR,28.22,61.22,62.438000000000045,42,96,4.68
port-cartier,RO,44.75,25.67,52.646000000000015,81,79,2.1
suleja,US,42.1,-79.24,38.85799999999995,69,90,9.3
samalaeulu,RU,61.23,73.33,31.999999999999943,96,96,4.0
ribeira grande,CL,-45.58,-72.07,48.19999999999993,76,40,1.0
pathein,PT,38.73,-27.07,60.80000000000001,72,75,7.67
castro,NO,70.24,22.35,33.26000000000005,74,38,9.3
fierze,CA,69.45,-133.04,26.599999999999966,92,90,3.1
lorengau,CL,-23.65,-70.4,62.599999999999966,82,20,3.6
hobart,CN,41.76,86.15,61.952000000000055,19,73,2.95
arkhangelsk,GL,77.48,-69.36,21.128000000000043,94,100,0.92
khash,GN,9.65,-9.78,74.76800000000009,68,80,1.75
cornatelu,ID,-3.7,128.18,89.59999999999997,66,20,1.5
jamestown,US,38.42,-121.42,72.73399999999998,19,1,5.7
poykovskiy,IT,43.77,11.25,51.656000000000006,87,90,3.6
coihaique,AR,-34.65,-59.43,52.75399999999996,95,100,2.68
praia da vitoria,AR,-31.42,-64.5,54.86000000000007,76,4,3.1
oksfjord,RU,59.45,112.56,37.238,79,2,2.25
tuktoyaktuk,MX,16.6,-92.72,91.39999999999992,26,75,4.6
antofagasta,ID,-6.88,112.21,79.59199999999993,82,62,1.26
korla,CL,-29.95,-71.34,58.99999999999994,82,28,2.6
qaanaaq,GL,69.22,-51.1,28.399999999999977,92,99,5.7
tokonou,TL,-8.93,125.41,68.108,63,62,0.94
ambon,NZ,-46.6,168.33,46.99400000000003,71,52,8.94
laguna,CA,55.74,-97.86,15.799999999999955,40,75,5.1
florence,IE,53.27,-7.49,32.72000000000003,86,40,2.1
mercedes,TR,37.27,28.22,42.799999999999955,93,0,2.1
villa carlos paz,ZA,-34.42,19.23,52.843999999999994,94,33,0.41
vitim,JP,34.67,138.95,56.19199999999995,58,20,5.1
san lucas,US,36.68,-101.48,34.06999999999999,55,90,3.1
labuhan,RU,70.63,147.92,-1.75,91,98,6.09
coquimbo,BR,-5.2,-35.46,78.80000000000001,88,85,2.1
ilulissat,MX,17.96,-102.2,79.77199999999999,63,67,3.28
airai,MY,2.3,111.82,79.73600000000005,83,75,3.1
tabiauea,NZ,-44.27,171.13,51.00799999999998,44,23,4.92
bluff,IL,31.61,34.76,57.05599999999998,82,75,1.5
thompson,RU,43.74,135.29,46.14799999999997,54,0,1.39
tullamore,MX,22.89,-109.91,72.80599999999998,49,40,6.2
bayir,ZA,-33.92,25.57,58.99999999999994,62,51,4.1
hermanus,US,19.73,-155.09,71.25799999999998,69,75,5.1
shimoda,GL,65.61,-37.64,35.599999999999966,43,6,15.9
guymon,US,39.76,-105.22,21.00200000000001,85,90,3.6
chokurdakh,RU,51.85,109.91,34.46599999999995,69,100,0.83
touros,LK,6.12,81.12,76.99999999999994,100,20,3.31
lazaro cardenas,DM,15.43,-61.27,79.66400000000004,75,0,4.77
sibu,BR,-15.92,-46.11,71.78000000000003,79,14,1.91
pleasant point,RU,58.81,41.05,37.47199999999998,75,99,4.95
gat,KR,37.57,126.98,56.31800000000004,47,1,2.1
olga,MY,5.41,100.34,82.56200000000007,74,20,3.1
cabo san lucas,US,35.2,-111.65,47.76800000000003,42,20,3.6
nizhneyansk,CN,38.42,77.24,56.13799999999998,20,92,2.02
port elizabeth,GA,-1.57,9.26,79.24999999999994,86,72,1.64
hilo,MU,-20.41,57.7,76.60399999999998,78,40,4.6
tasiilaq,VE,10.67,-63.26,75.19999999999999,83,17,2.38
golden,US,21.32,-158.01,80.34800000000001,54,20,6.2
kizhinga,TR,39.66,35.88,38.894000000000005,36,0,1.26
hambantota,PG,-2.57,150.8,84.50600000000003,72,100,2.33
castle bruce,MR,20.52,-13.05,83.31800000000004,17,80,3.35
amderma,NO,70.86,29.09,33.99799999999999,89,99,8.75
arinos,GL,72.79,-56.15,28.02199999999999,96,99,3.1
vokhtoga,AU,-42.78,147.06,60.11599999999993,55,20,7.2
seoul,RU,53.51,142.97,31.819999999999993,96,33,2.47
georgetown,CL,-37.62,-73.65,53.797999999999945,74,69,5.34
flagstaff,MX,19.93,-105.25,82.57999999999998,33,100,5.36
shache,MG,-15.72,46.32,75.19999999999999,78,20,2.6
omboue,ID,-3.8,102.27,79.57400000000001,79,85,2.19
mahebourg,UZ,40.56,65.69,49.99999999999994,100,36,2.6
carupano,MV,3.78,72.97,85.71200000000005,66,81,3.05
ewa beach,GL,60.72,-46.03,30.199999999999932,86,75,1.18
akdagmadeni,RE,-20.94,55.29,66.97399999999999,73,21,6.7
kavieng,RU,56.21,89.53,37.813999999999965,70,99,1.53
atar,GL,60.92,-46.05,30.199999999999932,86,66,0.32
berlevag,RU,59.7,30.79,29.64199999999994,86,22,2.0
upernavik,TM,38.78,63.88,53.599999999999966,50,75,7.2
new norfolk,ZA,-33.96,22.46,53.599999999999966,76,0,2.6
ekhabi,MY,3.17,113.03,81.06800000000004,79,75,2.1
lebu,BR,-22.97,-42.03,74.37200000000001,69,26,6.45
tsihombe,NO,61.99,5.14,34.24999999999994,86,85,3.1
tomatlan,ES,40.39,-5.76,50.41399999999999,93,18,0.76
mahajanga,US,64.84,-147.72,40.153999999999996,80,90,5.1
bengkulu,US,55.34,-131.65,45.68000000000001,87,90,5.1
nurota,MU,-20.34,57.76,76.53199999999998,78,40,4.6
mahibadhoo,UA,47.44,29.56,46.25599999999997,57,96,6.91
qaqortoq,BR,-21.64,-41.05,72.89600000000002,71,5,3.92
le port,FR,48.42,1.5,40.99999999999994,60,0,7.2
bogotol,CV,14.9,-24.5,73.36399999999998,76,91,5.41
narsaq,LA,18.24,104.21,66.38000000000005,65,57,1.46
ruatoria,ZA,-33.59,26.89,58.99999999999994,84,66,2.24
nikolskoye,JP,34.98,139.87,57.02000000000004,44,20,8.2
sayat,AU,-28.77,114.6,73.39999999999992,60,19,7.7
george,US,60.55,-151.26,40.98199999999997,86,90,1.5
bintulu,BR,-8.9,-35.15,79.77199999999999,72,48,3.27
arraial do cabo,PF,-16.48,-151.75,83.28199999999998,69,46,3.59
raudeberg,RU,69.38,178.42,11.749999999999943,89,31,1.23
bejar,AU,-31.95,141.43,71.59999999999997,28,0,4.6
fairbanks,PL,52.18,21.57,32.05400000000003,68,32,2.1
ketchikan,CD,-6.13,24.48,69.11599999999993,74,100,0.28
bambous virieux,RU,66.66,66.42,14.629999999999995,94,85,4.41
mayaky,MW,-15.81,35.65,65.714,74,28,0.62
sao joao da barra,CN,32.68,109.02,55.00399999999996,40,76,7.15
chartres,MU,-20.01,57.66,76.37000000000006,78,40,4.6
sao filipe,US,57.05,-135.33,44.599999999999966,100,90,3.6
saleaula,RU,54.37,81.9,35.960000000000036,91,100,2.74
ban nahin,US,45.02,-93.22,28.813999999999965,46,40,7.2
port alfred,ID,-0.91,122.88,81.464,70,94,1.44
tateyama,RU,59.38,143.3,26.563999999999965,95,82,0.72
geraldton,BR,-9.67,-35.74,76.99999999999994,88,24,1.0
deh rawud,TZ,-6.82,30.44,71.59999999999997,67,100,1.44
kenai,AR,-45.87,-67.5,57.19999999999999,50,0,5.7
sao jose da coroa grande,PR,18.43,-65.83,78.02600000000001,83,40,3.6
faanui,VU,-13.88,167.55,82.39999999999992,88,90,8.42
leningradskiy,PT,32.67,-17.1,56.641999999999996,63,75,5.7
broken hill,AU,-34.73,135.87,70.988,39,41,4.83
minsk mazowiecki,US,31.42,-103.49,60.9260000000001,29,1,6.2
kabinda,PF,-16.7,-151.02,83.73200000000003,65,37,2.51
labytnangi,BR,-14.74,-50.57,78.15199999999999,71,23,0.52
phalombe,US,34.64,-120.46,57.25399999999996,76,90,2.6
ankang,LR,4.38,-7.72,80.762,83,89,2.83
grand gaube,RU,61.15,149.63,21.34400000000005,87,96,1.34
sitka,NZ,-36.83,175.7,62.00600000000003,70,55,6.26
ordynskoye,KI,3.07,172.79,83.13799999999998,79,100,7.1
saint anthony,AO,-15.2,12.15,75.32600000000008,71,22,2.16
biak,CA,70.47,-68.59,10.399999999999977,85,90,6.2
okhotsk,PG,-3.67,152.43,84.61399999999998,72,82,2.43
maceio,VE,11.66,-70.22,79.80799999999994,76,18,12.96
karema,ES,28.66,-17.92,62.599999999999966,67,6,3.1
barawe,US,40.6,-124.16,60.42199999999997,66,20,7.2
comodoro rivadavia,CO,7.24,-76.44,76.19,81,96,0.5
vieques,RU,64.57,143.2,24.583999999999946,87,100,1.84
sola,GL,68.82,-51.19,28.399999999999977,92,99,5.7
ponta do sol,JP,32.69,128.84,60.80000000000001,44,20,4.6
port lincoln,BB,13.22,-59.52,78.80000000000001,74,20,5.1
pecos,RU,69.42,30.81,33.799999999999955,86,95,8.7
fare,CN,37.36,120.4,58.87399999999997,34,18,2.32
mozarlandia,TM,38.05,58.21,48.19999999999993,81,90,2.1
kazalinsk,NZ,-41.41,175.52,56.47999999999996,44,62,3.6
lompoc,AU,-38.27,141.97,61.93399999999991,43,89,5.25
harper,BW,-25.27,23.28,76.04599999999999,26,65,4.25
ust-omchug,PE,-10.07,-78.15,73.166,76,36,3.28
whitianga,IR,35.31,46.99,40.549999999999955,48,1,1.6
butaritari,PE,-13.7,-76.22,69.80000000000001,83,78,3.6
namibe,AU,-17.0,145.43,83.83999999999997,55,40,7.2
clyde river,ID,-0.89,119.87,82.39999999999992,68,72,0.67
namatanai,NO,67.67,12.69,34.23199999999997,83,100,5.09
punta cardon,PK,30.37,68.6,65.58800000000002,27,57,0.24
los llanos de aridane,PA,9.55,-79.65,79.43,83,40,1.5
meyungs,CO,10.99,-74.95,80.59999999999997,78,3,4.1
fortuna,PT,39.05,-27.98,60.27800000000008,81,100,6.39
mutata,GF,5.38,-52.95,78.656,75,80,4.83
ozgon,GB,51.41,-0.84,38.02999999999997,69,3,3.1
ust-nera,AR,-34.62,-68.33,61.01600000000002,36,2,3.16
qasigiannguit,ZA,-28.78,32.04,74.69599999999997,89,98,2.78
fukue,NA,-18.06,13.84,69.09800000000001,42,46,0.89
bathsheba,ES,39.89,4.27,57.19999999999999,93,0,1.0
umzimvubu,SB,-8.14,159.59,85.406,74,92,4.13
zapolyarnyy,MX,30.48,-115.95,61.178000000000054,71,4,8.39
zhaoyuan,LY,31.67,20.25,65.04799999999994,40,7,6.7
buzmeyin,RU,60.47,166.1,15.27800000000002,91,1,3.37
marcona,AO,-8.84,13.23,78.80000000000001,94,75,2.1
waipawa,GB,50.86,0.57,41.233999999999924,65,4,6.7
codrington,OM,22.57,59.53,81.37399999999997,44,44,2.42
werda,RO,44.37,25.84,52.69999999999999,66,90,1.0
huarmey,SB,-8.77,160.7,84.68599999999998,72,97,1.92
sanandaj,RU,45.46,41.97,38.19199999999995,34,0,3.0
pisco,RU,55.7,61.55,30.199999999999932,100,75,2.0
mareeba,CA,50.26,-119.27,53.88799999999998,16,75,0.92
palu,BR,-14.28,-39.0,76.99999999999994,94,75,1.0
sorland,US,39.18,-84.53,41.59400000000005,60,90,2.1
loralai,CN,24.52,103.77,51.26000000000005,53,82,1.62
portobelo,ID,3.1,98.49,78.80000000000001,100,40,2.6
puerto colombia,MX,23.77,-98.22,75.9919999999999,81,31,1.79
lagoa,US,20.89,-156.47,78.56599999999997,61,40,5.1
sinnamary,RU,56.34,114.88,33.63799999999998,63,0,0.58
wokingham,RU,57.82,114.0,36.62600000000003,69,26,0.7
san rafael,CA,65.28,-126.83,39.19999999999993,44,90,2.6
richards bay,ZA,-33.01,17.94,55.39999999999992,87,0,1.5
opuwo,NO,69.39,20.27,31.999999999999943,93,20,4.6
mao,MG,-14.27,50.17,74.12000000000006,90,98,3.07
buala,MR,20.5,-10.07,78.67399999999992,20,59,4.49
denau,CN,33.77,120.25,53.491999999999905,60,100,3.76
san quintin,CN,39.45,75.98,62.599999999999966,11,40,4.0
suluq,US,41.28,-70.1,55.47200000000004,93,90,14.4
tilichiki,CN,37.34,111.21,52.96999999999997,24,75,2.15
luanda,BR,-30.18,-50.21,70.71800000000002,81,52,8.97
hastings,US,44.9,-89.77,27.896000000000015,79,75,6.7
sur,AU,-35.72,150.18,68.98999999999995,62,3,0.89
buturugeni,KE,-1.78,37.63,66.00200000000001,69,95,0.82
auki,AU,-34.58,150.86,71.31200000000007,43,0,4.6
donskoye,CN,36.62,101.77,45.139999999999986,21,13,1.1
kunashak,RU,63.01,112.47,34.06999999999999,87,100,2.53
vernon,RU,63.9,122.76,21.470000000000027,90,0,1.53
itacare,RU,63.05,179.32,22.639999999999986,95,100,1.51
hamilton,SO,9.49,50.81,80.78000000000003,72,73,2.43
zhongshu,ID,4.14,96.13,79.44800000000004,83,100,1.2
kabanjahe,AU,-22.0,148.05,77.79199999999997,49,1,8.02
soto la marina,MX,21.28,-89.67,85.15400000000005,66,20,3.6
kahului,BR,-8.26,-49.26,75.488,87,94,0.77
taksimo,US,41.14,-73.36,58.910000000000025,93,90,3.6
mamakan,UA,49.15,23.03,33.00799999999998,85,99,4.12
norman wells,SS,9.53,31.66,83.012,13,99,2.46
saldanha,CO,4.71,-74.23,57.19999999999999,87,40,1.0
skibotn,NO,71.04,27.85,32.360000000000014,92,96,7.77
sambava,RE,-21.37,55.62,66.97399999999999,78,8,3.1
adrar,RU,52.03,80.38,38.210000000000036,83,0,0.39
hede,CN,27.73,112.53,62.00600000000003,59,94,1.83
kashi,AU,-33.87,121.9,67.99999999999994,77,75,3.6
nantucket,CA,50.7,-127.42,58.99999999999994,38,75,6.2
ningxiang,MU,-20.52,57.52,76.53199999999998,78,40,4.6
cidreira,US,37.1,-113.58,59.46800000000002,15,1,7.7
marathon,JP,33.28,134.15,58.99999999999994,41,20,8.7
batemans bay,US,33.21,-92.67,51.81800000000004,71,75,2.6
wote,CD,-0.22,20.87,74.82199999999995,77,97,0.29
flinders,PG,-5.55,150.14,85.91000000000003,73,99,0.52
sorvag,RU,69.49,88.4,8.599999999999966,84,20,10.0
xining,BR,-29.68,-53.81,73.39999999999992,49,75,3.1
chernyshevskiy,PT,33.08,-16.33,59.52199999999999,77,40,6.7
kysyl-syr,US,45.52,-122.68,64.43599999999998,20,20,4.6
beringovskiy,ID,-8.47,140.33,82.77800000000008,80,28,5.9
bandarbeyla,CL,-27.37,-70.33,58.99999999999994,82,20,2.6
meulaboh,SA,17.49,44.13,73.39999999999992,53,71,1.94
moranbah,IN,28.17,94.77,65.96599999999995,51,0,1.77
progreso,BW,-18.37,21.85,69.33199999999994,47,51,0.46
conceicao do araguaia,GH,4.87,-2.24,81.28399999999993,84,79,3.01
westport,ID,5.89,95.32,83.06599999999997,74,99,2.57
turka,RU,66.83,70.83,12.470000000000027,96,28,4.78
malakal,VE,7.77,-72.22,71.11399999999998,54,74,0.68
mosquera,TD,11.03,20.28,84.632,13,74,2.42
mehamn,RU,69.2,33.45,30.199999999999932,92,75,2.0
karaul,CA,60.82,-115.8,30.199999999999932,54,75,3.1
saint-joseph,US,45.66,-68.71,52.664000000000044,93,90,3.6
volchikha,BR,-20.44,-53.76,73.54400000000004,73,17,2.53
xiangxiang,PH,12.18,125.51,82.63399999999996,68,57,4.33
esperance,AU,-41.07,145.92,58.99999999999994,76,78,3.13
port hardy,ML,22.68,-3.98,88.01600000000002,18,97,3.46
souillac,FI,64.08,24.55,29.55200000000002,93,24,0.45
saint george,BR,-24.11,-49.33,62.99600000000004,99,32,1.34
muroto,JP,43.32,145.57,35.599999999999966,59,75,7.2
el dorado,TZ,-8.7,34.38,65.46200000000005,61,98,2.69
boende,SO,11.28,49.18,82.77800000000008,66,49,3.04
kimbe,PR,18.38,-65.96,78.04400000000004,83,40,3.6
samusu,BR,-21.25,-45.0,61.627999999999986,71,22,2.3
talnakh,RU,71.97,102.5,12.541999999999973,95,91,4.1
santa maria,RU,54.79,65.99,36.68000000000001,76,28,4.13
camacha,CG,-4.76,11.86,79.79000000000002,87,74,1.84
portland,RU,60.75,42.05,35.61800000000005,81,100,4.93
merauke,MV,6.62,73.07,85.22600000000006,61,66,2.04
copiapo,CA,66.15,-65.71,12.199999999999932,92,100,2.12
najran,GB,60.4,-1.35,42.799999999999955,75,100,7.7
along,RU,64.75,177.48,17.25799999999998,85,75,2.0
shakawe,MN,49.03,104.08,29.26400000000001,55,84,2.68
axim,MX,19.22,-104.7,75.19999999999999,78,40,5.71
sabang,IR,32.87,59.22,48.19999999999993,100,90,3.1
yar-sale,RU,65.58,-171.0,29.696000000000026,96,74,2.35
san cristobal,RU,71.92,114.08,17.347999999999956,96,100,3.41
am timan,ID,1.17,108.97,76.49600000000004,84,26,3.7
polyarnyy,CN,36.19,117.66,59.27000000000004,45,96,2.66
hay river,CA,68.22,-135.01,30.199999999999932,92,90,3.6
millinocket,IS,64.25,-15.21,40.406000000000006,71,71,11.48
ribas do rio pardo,MX,21.65,-101.5,75.14600000000002,8,69,7.6
san policarpo,TZ,-2.63,31.31,62.94199999999995,63,100,0.61
burnie,IS,66.04,-17.34,42.799999999999955,45,75,21.1
taoudenni,CN,40.28,97.2,54.589999999999975,18,56,1.14
ylivieska,GL,68.31,-53.46,28.54400000000004,96,100,14.31
itarare,MN,47.91,106.88,30.199999999999932,68,40,7.0
nemuro,RU,60.42,134.53,33.331999999999994,84,100,4.18
rujewa,AR,-26.62,-54.13,62.92399999999992,87,95,2.25
bosaso,NZ,-45.42,167.72,44.365999999999985,62,70,2.6
carolina,RU,61.36,63.58,37.76000000000005,94,100,3.86
lavras,NU,-19.06,-169.92,84.19999999999999,70,75,7.2
khatanga,US,42.42,-122.83,68.21599999999995,15,1,1.62
polovinnoye,TM,37.5,61.97,53.599999999999966,54,90,5.1
loandjili,KZ,53.88,67.42,39.79400000000004,78,82,4.21
verkhovazhye,MY,1.55,110.33,81.24799999999999,88,20,2.1
kulhudhuffushi,IN,11.67,92.75,83.012,64,99,1.51
pangnirtung,RU,52.68,55.69,30.95599999999996,88,61,4.85
brae,NO,70.37,31.11,34.214,91,100,8.41
anadyr,US,29.7,-91.21,68.01800000000009,77,1,3.6
grand river south east,IN,28.07,95.33,71.09600000000006,55,0,1.29
erdenet,BR,-2.92,-39.92,77.50399999999996,86,96,1.77
san patricio,NP,29.27,82.18,48.36200000000002,27,84,1.35
birjand,RU,52.52,99.83,22.49599999999998,65,0,0.49
lavrentiya,BR,-31.33,-54.11,60.99799999999999,74,97,4.02
saskylakh,BR,-15.86,-38.88,73.39999999999992,94,75,2.1
pemangkat,OM,22.93,57.53,77.16199999999998,38,98,0.2
sindand,BR,-16.19,-55.97,78.80000000000001,69,75,3.6
warqla,SO,5.35,48.53,83.83999999999997,78,51,5.94
laiwu,FR,42.67,9.33,56.30000000000001,93,90,1.5
aflu,JP,26.12,127.67,65.30000000000001,52,75,4.1
aklavik,ID,0.8,127.4,84.38000000000005,70,99,1.73
hofn,CN,30.63,117.85,55.994000000000085,61,99,1.44
ocampo,RU,69.7,170.31,7.015999999999963,91,22,1.7
biharamulo,RU,41.78,47.59,29.533999999999935,39,0,2.31
husavik,AU,-28.87,153.57,75.632,47,6,2.6
yumen,US,42.25,-85.0,36.049999999999955,43,75,7.2
kangaatsiaq,KM,-11.38,43.28,83.38999999999993,76,100,3.29
ulaanbaatar,ID,1.45,125.18,85.99999999999994,70,40,1.0
ust-maya,PH,16.36,119.86,80.67199999999997,72,35,5.66
san vicente,GY,3.38,-59.8,83.2100000000001,49,86,4.79
te anau,RU,68.05,39.51,31.65799999999996,97,95,7.12
sovetskiy,RU,53.13,132.9,30.79400000000004,66,1,2.35
alofi,QA,25.29,51.53,69.512,88,20,3.1
jackson,RU,61.07,50.1,26.852000000000032,97,37,1.17
murgab,BS,26.54,-77.06,77.70200000000006,85,88,6.22
yanchukan,JP,34.69,135.8,53.88799999999998,41,40,5.7
sergeyevka,US,21.35,-158.09,80.06,78,75,2.6
kuching,NO,69.65,18.96,31.49599999999998,93,20,4.6
port blair,BW,-21.53,21.93,74.87600000000003,30,86,3.91
mayachnyy,IS,65.97,-18.53,42.799999999999955,45,75,21.1
vardo,RU,67.68,53.15,13.999999999999943,95,98,4.28
morgan city,ID,1.74,98.78,77.84600000000006,81,100,2.42
pasighat,JP,26.18,127.76,65.17399999999992,55,75,4.1
itarema,AU,-20.74,116.85,84.14600000000002,59,28,2.78
jumla,PG,-6.22,155.63,87.72800000000001,63,73,1.85
orlik,LR,6.3,-10.8,80.99600000000004,83,67,2.92
labutta,NG,7.38,8.57,83.19199999999995,56,47,3.3
bage,AO,-12.78,15.74,58.891999999999996,58,87,0.87
belmonte,PG,-10.62,150.67,83.38999999999993,71,99,3.48
uwayl,CD,-2.95,25.95,70.71800000000002,85,99,0.84
nizwa,RU,41.54,47.42,39.19999999999993,86,40,1.0
barao de melgaco,ID,-8.65,115.22,84.19999999999999,89,20,1.0
hobyo,ID,-1.27,104.08,78.90799999999996,87,99,0.75
bastia,CA,51.26,-80.61,17.599999999999966,85,90,10.3
lolua,BR,2.82,-60.67,84.19999999999999,48,82,3.6
itoman,MG,-25.17,45.05,73.56200000000007,69,0,1.79
ternate,RU,64.38,-173.3,31.999999999999943,95,90,1.0
rongcheng,CU,22.81,-80.08,82.39999999999992,83,20,4.1
pevek,AU,-37.88,147.98,62.99600000000004,73,52,1.79
tpig,ID,-0.88,131.25,82.79599999999999,81,76,1.58
ballina,JP,35.73,140.83,55.56200000000007,55,20,7.7
calhoun,CN,34.57,105.89,50.10799999999995,49,4,1.74
mitsamiouli,AI,18.22,-63.06,80.54599999999999,78,40,3.6
bitung,SZ,-27.31,31.89,73.39999999999992,88,87,0.5
balingasay,ID,-0.32,102.35,75.81200000000007,95,100,0.38
lethem,UZ,39.26,65.15,60.15199999999999,47,90,2.61
ostrovnoy,ID,-8.51,115.27,84.19999999999999,89,20,1.0
tokur,FR,43.4,4.98,52.41199999999998,76,100,1.5
doha,GW,11.28,-15.83,79.62799999999999,72,50,5.74
vizinga,AR,-31.63,-60.7,60.60200000000003,83,29,0.89
marsh harbour,ID,-4.94,122.53,82.00399999999996,77,87,1.02
nara,ID,-8.12,111.89,78.512,76,68,0.78
makakilo city,PH,11.0,122.67,82.61599999999993,70,0,0.8
tromso,BY,52.63,29.73,42.74599999999998,69,99,6.1
dekar,CU,20.04,-77.58,80.22200000000004,80,15,4.77
attawapiskat,CV,17.15,-25.02,71.59999999999997,73,40,8.7
dalvik,AO,-6.13,12.37,79.82600000000008,86,93,1.81
iskateley,PH,14.35,121.02,86.36000000000007,62,75,2.6
sibolga,RU,64.92,77.78,28.994000000000028,93,100,2.74
nishihara,IN,27.05,79.92,82.94,23,31,1.73
karratha,LY,32.53,20.58,62.54599999999999,44,1,3.19
kieta,US,39.15,-123.21,67.76600000000002,28,1,2.6
monrovia,US,21.44,-157.84,79.95200000000006,69,75,5.1
yaan,PT,42.03,-8.16,48.64999999999998,93,33,2.1
huambo,BR,-32.03,-52.1,69.00799999999998,86,100,0.45
samarai,UG,-0.61,30.65,63.06800000000004,62,99,1.16
kindu,CO,6.19,-67.49,89.59999999999997,40,58,5.7
rutul,JP,35.13,140.3,56.156000000000006,44,20,8.2
denpasar,TO,-19.8,-174.35,84.19999999999999,74,20,6.2
simpang,PH,13.31,123.34,80.47399999999999,76,48,2.9
moose factory,TZ,-6.17,35.74,64.27399999999994,71,99,2.09
boa vista,RU,59.37,28.61,30.75799999999998,95,0,3.32
beloha,US,34.88,-76.9,67.44199999999995,77,1,3.6
provideniya,IN,25.35,72.62,82.14799999999997,23,94,1.59
sagua la grande,RU,57.67,63.07,36.589999999999975,84,32,1.42
lakes entrance,CI,4.42,-7.35,80.36599999999993,84,89,2.51
sorong,BR,-28.51,-50.93,58.20799999999991,62,52,2.7
hasaki,RU,62.08,32.35,30.091999999999928,97,11,1.39
beidao,US,21.39,-158.15,79.93399999999991,78,75,2.6
the valley,CA,60.75,-137.51,39.18199999999996,66,98,3.66
lavumisa,ID,-9.11,124.89,79.69999999999999,74,59,0.79
japura,AU,-42.91,147.35,61.033999999999935,55,20,7.2
muborak,US,43.19,-112.34,36.75200000000001,29,40,6.7
ubud,VN,9.29,105.72,81.80599999999998,76,88,7.15
port-de-bouc,BY,52.15,25.54,35.45599999999996,77,100,4.27
bubaque,AU,-35.35,150.47,68.89999999999992,43,0,4.6
santa fe,RU,48.1,136.1,40.71199999999999,74,81,4.82
katobu,AZ,40.56,50.01,49.99999999999994,81,75,5.1
boyolangu,HK,22.29,114.16,69.44,52,20,2.1
dingle,US,42.25,-75.83,45.446000000000026,60,90,8.7
svetlogorsk,ID,-8.61,120.47,70.46599999999995,66,84,0.39
niquero,US,46.98,-123.89,57.11000000000007,44,1,4.6
pombas,PH,11.14,123.72,81.94999999999999,76,20,4.8
soyo,US,43.37,-124.22,61.12399999999997,38,1,10.3
san pedro,JP,38.03,140.85,48.18199999999996,37,20,11.3
tarko-sale,RU,68.75,161.3,17.870000000000005,95,96,2.99
kannauj,AU,-41.45,147.17,60.74600000000004,77,90,6.7
tukrah,US,39.49,-80.14,42.81800000000004,52,75,6.7
ukiah,FO,62.23,-6.59,44.599999999999966,87,100,7.7
ahuimanu,IN,16.48,79.43,77.86399999999998,39,0,0.48
vila,AU,-12.23,136.77,85.99999999999994,70,40,6.7
rio grande,CA,43.75,-81.72,38.660000000000025,78,65,9.64
mbarara,TH,15.19,104.86,73.72399999999999,69,100,4.1
puerto carreno,IN,13.42,76.62,73.43599999999998,30,0,1.8
katsuura,US,47.47,-94.88,19.436000000000035,62,1,5.1
pangai,CF,4.96,18.7,75.19999999999999,88,20,1.5
buluang,NZ,-35.17,173.17,64.84999999999997,64,66,10.8
dodoma,AU,-32.72,152.15,70.844,64,1,3.6
kingisepp,IN,23.12,83.2,74.10200000000003,23,0,1.3
havelock,RU,58.84,36.43,43.412000000000035,89,100,1.81
jalor,LK,6.48,79.98,78.20599999999996,85,61,1.55
irbit,KZ,47.8,67.71,41.089999999999975,69,94,5.2
tabou,CA,63.75,-68.51,15.386000000000024,78,90,3.2
vacaria,ID,-8.47,118.72,81.41000000000003,78,50,0.54
suoyarvi,US,29.6,-90.72,69.38600000000002,73,1,2.1
nanakuli,JP,24.8,125.28,67.99999999999994,49,75,4.1
haines junction,EE,58.57,23.51,33.313999999999965,85,75,4.1
atambua,CD,0.52,25.2,71.78000000000003,85,100,0.81
sandy bay,TH,7.92,98.33,82.39999999999992,83,20,3.6
blackfoot,PY,-27.23,-56.22,67.99999999999994,68,90,2.6
bac lieu,ID,-0.95,100.35,79.01600000000002,79,100,0.87
ivanava,GB,55.76,-4.86,33.386000000000024,75,77,1.5
ulladulla,US,45.58,-122.35,64.43599999999998,16,1,3.1
mukhen,KZ,43.91,67.25,49.74799999999999,46,58,9.71
bargal,CI,9.6,-5.2,84.52399999999994,46,35,2.56
nardaran,CN,18.8,110.4,70.39400000000006,70,97,3.01
victoria,RU,52.17,109.77,34.55599999999998,67,100,1.09
yuzhno-yeniseyskiy,MY,4.41,114.01,84.19999999999999,83,75,3.1
broome,CN,39.7,119.15,60.26000000000005,32,12,2.87
ruteng,RU,70.02,135.6,2.2100000000000364,87,37,1.76
hoquiam,ID,-9.66,120.26,82.47200000000004,74,64,0.9
sulangan,RU,51.02,45.7,37.00400000000002,73,26,0.89
coos bay,GA,-3.43,10.66,79.86200000000002,82,52,1.47
watari,PF,-17.51,-149.49,89.59999999999997,66,40,2.6
cherskiy,AU,-28.65,153.62,74.74999999999994,57,10,1.0
launceston,OM,17.02,54.09,80.59999999999997,74,40,3.1
fairmont,CN,41.12,80.26,58.55000000000001,21,82,0.51
klaksvik,BE,50.45,5.3,36.03199999999998,59,0,2.1
macherla,US,37.34,-121.89,65.55200000000008,52,20,6.2
nhulunbuy,PL,51.38,20.28,32.43199999999996,67,73,25.03
goderich,RU,59.43,62.35,40.406000000000006,94,97,2.92
warin chamrap,AO,-12.38,16.93,59.89999999999992,59,100,0.96
chiknayakanhalli,TM,39.21,54.59,47.31800000000004,70,7,1.26
bemidji,IN,13.22,80.32,79.07,94,20,1.0
damara,KZ,43.3,52.8,38.94799999999998,63,0,2.99
ahipara,NA,-26.65,15.16,60.80000000000001,59,0,9.3
nelson bay,MV,2.67,72.89,85.22600000000006,64,56,2.18
ambikapur,IS,64.89,-23.71,39.686000000000035,72,95,17.49
ustyuzhna,CN,30.42,103.46,58.99999999999994,93,20,1.0
beruwala,IN,21.12,70.12,80.32999999999998,55,39,4.35
zhezkazgan,RU,49.22,143.12,34.24999999999994,84,19,1.17
iqaluit,AF,36.41,64.91,53.762,73,100,2.33
bima,US,44.53,-109.06,25.44799999999998,53,75,6.7
houma,NZ,-46.13,167.68,46.99400000000003,71,74,8.94
hirara,CN,27.32,103.72,46.70599999999996,44,55,2.24
virtsu,KZ,48.68,71.64,44.43799999999999,64,39,2.99
kisangani,FR,45.39,4.29,52.88000000000005,62,100,1.0
kathu,PH,8.0,124.29,78.40400000000005,47,0,0.55
carmen del parana,CF,4.94,15.87,72.55400000000003,68,8,0.56
padang,US,35.76,-83.97,49.83800000000002,57,75,3.1
fairlie,BR,-4.28,-55.98,74.13799999999998,96,100,1.29
washougal,RU,66.77,123.37,12.18199999999996,92,70,0.24
zhanakorgan,RU,58.43,58.26,28.47199999999998,95,25,1.23
ferkessedougou,AU,-33.18,138.02,78.80000000000001,19,4,5.7
wanning,US,33.08,-83.23,65.69599999999997,72,1,1.5
khorinsk,RU,50.72,136.63,34.89799999999997,75,100,6.41
cheuskiny,BR,-32.24,-53.09,60.00799999999998,87,100,2.68
miri,CL,-35.33,-72.42,55.363999999999976,58,42,4.63
changli,RU,62.53,155.8,18.355999999999995,87,83,1.3
ust-kuyga,MN,46.68,113.28,48.99199999999996,27,99,2.16
talawdi,GL,61.99,-49.67,29.73199999999997,94,100,3.08
waingapu,CA,54.77,-101.86,17.420000000000016,90,100,3.83
krasnoarmeysk,IN,16.27,81.17,77.036,81,0,1.47
mayumba,RU,62.88,152.43,22.927999999999997,90,99,0.78
mahina,CV,14.92,-23.51,71.59999999999997,78,88,4.6
byron bay,RU,51.93,43.5,40.51400000000001,68,41,4.12
salalah,US,33.19,-82.53,66.66800000000006,82,1,2.3
aksu,PH,20.45,121.97,69.04400000000004,73,100,9.94
modave,GL,64.18,-51.72,28.202000000000055,79,100,7.7
san jose,AU,-37.81,144.89,65.87600000000003,59,40,4.6
mys shmidta,CL,-41.87,-73.82,49.99999999999994,100,90,0.5
kuche,RU,65.99,57.53,21.937999999999988,95,55,3.05
opoczno,NO,70.98,25.97,34.322,86,87,8.59
gari,RU,63.28,118.33,30.596000000000004,92,0,1.4
kuito,ID,-7.43,111.02,76.99999999999994,94,34,1.5
gumdag,TC,21.46,-71.14,78.9260000000001,81,0,9.34
kattivakkam,US,34.14,-116.05,68.75600000000003,28,40,3.6
zhanaozen,GF,4.93,-52.33,80.59999999999997,69,60,2.1
luderitz,RU,52.86,103.17,37.47199999999998,61,93,1.22
kudahuvadhoo,TR,39.92,33.23,37.95799999999997,69,0,0.5
olafsvik,KZ,49.63,72.85,37.39999999999998,53,0,3.0
linqiong,RU,62.71,56.2,24.69199999999995,96,17,2.04
mangrol,MU,-19.98,57.61,76.37000000000006,78,40,4.6
poronaysk,RU,53.75,127.27,40.47800000000001,58,0,2.23
dawlatabad,IT,40.22,18.17,54.96800000000002,93,5,5.1
cody,RU,59.57,150.8,25.196000000000026,95,95,1.13
tuatapere,KE,1.75,40.06,80.74400000000009,70,98,6.17
zhaotong,RU,56.57,37.43,49.99999999999994,34,98,5.0
atasu,PK,25.37,68.31,79.08800000000002,49,85,6.57
firminy,GB,50.12,-5.54,47.55200000000002,70,13,9.3
chagda,ZM,-16.81,26.95,62.87000000000006,40,16,0.99
louisbourg,US,42.16,-72.33,58.01000000000005,100,75,3.6
